Year,Month,Start Station,Start Latitude,Start Longitude,End Station,End Latitude,End Longitude,Occurence,Average Duration,Percentage Member,Location
2020,november,Mackay / René-Lévesque,45.494435,-73.5740983,Mackay / René-Lévesque,45.494435,-73.5740983,139,1014.057554,90.64748201,Montreal
2020,november,Parc Jean-Drapeau (Chemin Macdonald),45.5128006,-73.5311159,Parc Jean-Drapeau (Chemin Macdonald),45.5128006,-73.5311159,126,1753.484127,26.98412698,Montreal
2020,november,de la Commune / St-Sulpice,45.5042425,-73.5534695,de la Commune / St-Sulpice,45.5042425,-73.5534695,75,1767.24,44,Montreal
2020,november,Parc Jeanne Mance (monument sir George-Etienne Cartier),45.5148399,-73.5847789,Parc Jeanne Mance (monument sir George-Etienne Cartier),45.5148399,-73.5847789,67,2537.686567,65.67164179,Montreal
2020,november,Rosemont / Viau,45.5683302,-73.5666633,Rosemont / Viau,45.5683302,-73.5666633,67,1472.656716,43.28358209,Montreal
2020,november,Métro Laurier (Rivard / Laurier),45.5276163,-73.5891147,Laurier / de Brébeuf,45.532514,-73.5848111,64,263.234375,95.3125,Montreal
2020,november,Marquette / Laurier,45.53543,-73.5822,Métro Laurier (Rivard / Laurier),45.5276163,-73.5891147,61,314.6885246,96.72131148,Montreal
2020,november,St-Joseph / 34e avenue Lachine,45.4328398,-73.6934915,St-Joseph / 34e avenue Lachine,45.4328398,-73.6934915,61,1682.377049,32.78688525,Montreal
2020,november,Métro Laurier (Rivard / Laurier),45.5276163,-73.5891147,de Lanaudière / Laurier,45.5333136,-73.5837369,60,228.1,91.66666667,Montreal
2020,november,de la Commune / Place Jacques-Cartier,45.5076101,-73.551836,de la Commune / Place Jacques-Cartier,45.5076101,-73.551836,59,1761.932203,32.20338983,Montreal
2020,november,Métro Laurier (Rivard / Laurier),45.5276163,-73.5891147,Marquette / Laurier,45.53543,-73.5822,59,274.9491525,96.61016949,Montreal
2020,november,Marché Atwater,45.4802082,-73.5775986,de la Commune / St-Sulpice,45.5042425,-73.5534695,52,1425.211538,28.84615385,Montreal
2020,november,Crescent / de Maisonneuve,45.4981116,-73.5776154,Crescent / de Maisonneuve,45.4981116,-73.5776154,51,858.8627451,88.23529412,Montreal
2020,november,de la Commune / St-Sulpice,45.5042425,-73.5534695,Marché Atwater,45.4802082,-73.5775986,50,1430.36,32,Montreal
2020,november,du Mont-Royal / Clark,45.51941,-73.58685,Métro Mont-Royal (Rivard / du Mont-Royal),45.524673,-73.58255,46,532.1304348,91.30434783,Montreal
2020,november,Métro Joliette  (Joliette / Hochelaga),45.5469072,-73.5515571,Aylwin / Ontario,45.5443031,-73.5454725,46,190.5652174,95.65217391,Montreal
2020,november,Marquette / du Mont-Royal,45.53229,-73.57544,Gauthier / Papineau,45.5296663,-73.5673365,45,342.2222222,100,Montreal
2020,november,Pontiac / Gilford,45.5270093,-73.585766,Gilford / de Brébeuf,45.5308162,-73.581626,44,184.7045455,100,Montreal
2020,november,de la Commune / Berri,45.51086,-73.54983,de la Commune / Berri,45.51086,-73.54983,43,2529.930233,37.20930233,Montreal
2020,november,Pontiac / Gilford,45.5270093,-73.585766,Gilford / de Lanaudière,45.532008,-73.5804445,42,243.1428571,92.85714286,Montreal
2020,november,Métro Mont-Royal (Rivard / du Mont-Royal),45.524673,-73.58255,Garnier / du Mont-Royal,45.53092,-73.57674,41,405.5853659,92.68292683,Montreal
2020,november,Gilford / de Lanaudière,45.532008,-73.5804445,Pontiac / Gilford,45.5270093,-73.585766,41,239.3414634,100,Montreal
2020,november,Métro Joliette  (Joliette / Hochelaga),45.5469072,-73.5515571,Valois / Ontario,45.5470481,-73.5434461,41,300.3902439,92.68292683,Montreal
2020,november,Desjardins / Ontario,45.5511919,-73.5408725,Bennett / Ste-Catherine,45.5530533,-73.5324275,41,300.195122,97.56097561,Montreal
2020,november,Léa-Roback / Sir-Georges-Etienne-Cartier,45.4716686,-73.5826439,Marché Atwater,45.4802082,-73.5775986,41,654.804878,60.97560976,Montreal
2020,november,Bennett / Ste-Catherine,45.5530533,-73.5324275,Bennett / Pierre-de-Coubertin,45.5581597,-73.5484001,41,392.4634146,92.68292683,Montreal
2020,november,St-Joseph / 8e avenue Lachine,45.4314714,-73.671205,St-Joseph / 8e avenue Lachine,45.4314714,-73.671205,41,1979.829268,48.7804878,Montreal
2020,november,Laurier / de Brébeuf,45.532514,-73.5848111,Métro Laurier (Rivard / Laurier),45.5276163,-73.5891147,40,241.925,97.5,Montreal
2020,november,Métro Pie-IX (Pierre-de-Coubertin / Pie-IX),45.5542138,-73.5515597,Desjardins / Ontario,45.5511919,-73.5408725,40,376.6,95,Montreal
2020,november,Métro Verdun (Willibrord / de Verdun),45.4594877,-73.5720921,Argyle / de Verdun,45.4530158,-73.571915,40,208.875,97.5,Montreal
2020,november,Métro Villa-Maria (de Monkland / Décarie),45.4789684,-73.6195993,de Hampton / de Monkland,45.4711793,-73.6270022,39,380.3589744,97.43589744,Montreal
2020,november,Parc Kent (de Kent / Hudson),45.5057209,-73.6294591,de Kent / de la Côte-des-Neiges,45.5014493,-73.6330506,39,699.6410256,94.87179487,Montreal
2020,november,de Kent / de la Côte-des-Neiges,45.5014493,-73.6330506,Parc Kent (de Kent / Hudson),45.5057209,-73.6294591,39,771.2564103,92.30769231,Montreal
2020,november,Métro Pie-IX (Pierre-de-Coubertin / Pie-IX),45.5542138,-73.5515597,de la Salle / Ste-Catherine,45.5499633,-73.5344338,39,459.7179487,87.17948718,Montreal
2020,november,de Rouen / Fullum,45.5321632,-73.5585429,Métro Frontenac (Ontario / du Havre),45.533706,-73.5521793,38,193.1578947,100,Montreal
2020,november,Métro Viau (Pierre-de-Coubertin / Viau),45.5617828,-73.5466111,Clark / Ontario,45.5108239,-73.5671715,38,454.3684211,89.47368421,Montreal
2020,november,Garnier / du Mont-Royal,45.53092,-73.57674,Métro Mont-Royal (Rivard / du Mont-Royal),45.524673,-73.58255,37,310.1891892,100,Montreal
2020,november,Métro Verdun (Willibrord / de Verdun),45.4594877,-73.5720921,Beatty / de Verdun,45.45073,-73.5725749,37,347.5135135,100,Montreal
2020,november,Bennett / Pierre-de-Coubertin,45.5581597,-73.5484001,Bennett / Ste-Catherine,45.5530533,-73.5324275,37,467,94.59459459,Montreal
2020,november,Métro Viau (Pierre-de-Coubertin / Viau),45.5617828,-73.5466111,Ontario / Viau,45.5594818,-73.535496,36,355.4722222,88.88888889,Montreal
2020,november,Léa-Roback / Sir-Georges-Etienne-Cartier,45.4716686,-73.5826439,Léa-Roback / Sir-Georges-Etienne-Cartier,45.4716686,-73.5826439,36,1663.861111,50,Montreal
2020,november,Métro Monk (Allard / Beaulieu),45.4510309,-73.5939011,Hamilton / Jolicoeur,45.4567028,-73.5976427,36,232.3333333,88.88888889,Montreal
2020,november,Métro Vendôme (de Marlowe / de Maisonneuve),45.4739303,-73.6047345,Victoria / de Maisonneuve,45.4774286,-73.6001694,35,276.9714286,91.42857143,Montreal
2020,november,Gauthier / Papineau,45.5296663,-73.5673365,Gauthier / Papineau,45.5296663,-73.5673365,35,1306.942857,94.28571429,Montreal
2020,november,Gauthier / Papineau,45.5296663,-73.5673365,Marquette / du Mont-Royal,45.53229,-73.57544,35,333.4285714,100,Montreal
2020,november,Aylwin / Ontario,45.5443031,-73.5454725,Métro Joliette  (Joliette / Hochelaga),45.5469072,-73.5515571,35,216.7428571,94.28571429,Montreal
2020,november,Marquette / Jean-Talon,45.5474078,-73.6076689,Marquette / Villeray,45.5507398,-73.6152944,35,221.0571429,100,Montreal
2020,november,Elgar / de l'Île-des-Sœurs,45.4568232,-73.5468042,Place du Commerce,45.46714,-73.54259,35,787.9428571,68.57142857,Montreal
2020,november,Crescent / de Maisonneuve,45.4981116,-73.5776154,Mackay / René-Lévesque,45.494435,-73.5740983,34,883.1764706,82.35294118,Montreal
2020,november,Place du Commerce,45.46714,-73.54259,Elgar / de l'Île-des-Sœurs,45.4568232,-73.5468042,34,524.0588235,73.52941176,Montreal
2020,november,Bloomfield / Bernard,45.5204578,-73.6082724,Jeanne-Mance / St-Viateur,45.5230265,-73.6018404,33,250.8181818,100,Montreal
2020,november,Marché Atwater,45.4802082,-73.5775986,des Bassins / du Séminaire,45.4905646,-73.5603333,33,660.7575758,72.72727273,Montreal
2020,november,Argyle / de Verdun,45.4530158,-73.571915,Métro Verdun (Willibrord / de Verdun),45.4594877,-73.5720921,33,198.3333333,100,Montreal
2020,november,Gilford / de Brébeuf,45.5308162,-73.581626,Pontiac / Gilford,45.5270093,-73.585766,32,163.96875,100,Montreal
2020,november,Marquette / Villeray,45.5507398,-73.6152944,Marquette / Jean-Talon,45.5474078,-73.6076689,32,212.1875,100,Montreal
2020,november,Métro Georges-Vanier (St-Antoine / Canning),45.4891,-73.57656,des Seigneurs / Notre-Dame,45.4877228,-73.5690826,32,189.59375,90.625,Montreal
2020,november,Jean Langlois / Fullum,45.5265,-73.5457528,Métro Papineau (Cartier / Ste-Catherine),45.52353,-73.55199,32,335.21875,100,Montreal
2020,november,Notre-Dame / Liébert,45.5928026,-73.5104656,Notre-Dame / Liébert,45.5928026,-73.5104656,32,1405.125,68.75,Montreal
2020,november,de la Commune / Place Jacques-Cartier,45.5076101,-73.551836,de la Commune / Berri,45.51086,-73.54983,31,1277.451613,35.48387097,Montreal
2020,november,Métro Papineau (Cartier / Ste-Catherine),45.52353,-73.55199,Poupart / Ste-Catherine,45.5290021,-73.5461994,31,247.4193548,100,Montreal
2020,november,McLynn / Plamondon,45.4891131,-73.6470129,McLynn / Plamondon,45.4891131,-73.6470129,31,2364,64.51612903,Montreal
2020,november,de Maisonneuve / Greene,45.4869706,-73.5892931,Melville / de Maisonneuve,45.4818402,-73.595379,31,576.9354839,67.74193548,Montreal
2020,november,Métro Vendôme (de Marlowe / de Maisonneuve),45.4739303,-73.6047345,de Maisonneuve / Greene,45.4869706,-73.5892931,30,568.2333333,73.33333333,Montreal
2020,november,Laurier / de Brébeuf,45.532514,-73.5848111,Cartier / Masson,45.5380207,-73.5835236,30,262.7333333,100,Montreal
2020,november,Roy / St-Laurent,45.5156162,-73.5758083,Roy / St-Denis,45.51908,-73.5727,30,151.0666667,90,Montreal
2020,november,Bloomfield / Bernard,45.5204578,-73.6082724,St-Cyril / Wiseman,45.5208548,-73.6157396,30,680,86.66666667,Montreal
2020,november,Métro Charlevoix (Centre / Charlevoix),45.4782279,-73.5696512,Richardson / de Montmorency,45.4849802,-73.5603333,30,454.8333333,90,Montreal
2020,november,St-Mathieu / Ste-Catherine,45.4936796,-73.5791463,Mackay / René-Lévesque,45.494435,-73.5740983,29,541.6551724,93.10344828,Montreal
2020,november,Marquette / du Mont-Royal,45.53229,-73.57544,Resther / du Mont-Royal,45.5256282,-73.5817748,29,337.6551724,100,Montreal
2020,november,Métro Mont-Royal (Rivard / du Mont-Royal),45.524673,-73.58255,Marquette / du Mont-Royal,45.53229,-73.57544,29,480.6896552,79.31034483,Montreal
2020,november,Métro Atwater (Atwater / Ste-Catherine),45.4894762,-73.5845657,Métro Vendôme (de Marlowe / de Maisonneuve),45.4739303,-73.6047345,29,817.5517241,82.75862069,Montreal
2020,november,Parc Jeanne Mance (monument sir George-Etienne Cartier),45.5148399,-73.5847789,Parc Jeanne-Mance (du Mont-Royal / du Parc),45.517,-73.589,29,1635.413793,96.55172414,Montreal
2020,november,Chabot / de Bellechasse,45.5425697,-73.5921443,Métro Beaubien (de Chateaubriand / Beaubien),45.53536,-73.6036348,29,393.2413793,100,Montreal
2020,november,Young / Wellington,45.4928253,-73.5579783,Young / Wellington,45.4928253,-73.5579783,29,1382.37931,68.96551724,Montreal
2020,november,de la Commune / Berri,45.51086,-73.54983,de la Commune / Place Jacques-Cartier,45.5076101,-73.551836,28,1737.821429,50,Montreal
2020,november,de Lanaudière / Laurier,45.5333136,-73.5837369,Métro Laurier (Rivard / Laurier),45.5276163,-73.5891147,28,288.4642857,96.42857143,Montreal
2020,november,Pontiac / Gilford,45.5270093,-73.585766,de Bordeaux / Gilford,45.5361101,-73.576287,28,417.4285714,92.85714286,Montreal
2020,november,Duluth / St-Laurent,45.5170456,-73.5792965,St-Hubert / Duluth,45.5224257,-73.5741842,28,228.5,92.85714286,Montreal
2020,november,Métro Préfontaine (Moreau / Hochelaga),45.5412155,-73.5537136,Ste-Catherine / Dezery,45.5393851,-73.5409999,28,320.0357143,96.42857143,Montreal
2020,november,Métro de l'Église (Ross / de l'Église),45.462846,-73.5659216,de l'Église / Bannantyne,45.4632535,-73.5758793,28,266.6785714,100,Montreal
2020,november,Melville / de Maisonneuve,45.4818402,-73.595379,de Maisonneuve / Greene,45.4869706,-73.5892931,28,309.4285714,100,Montreal
2020,november,Montcalm / Ontario,45.521081,-73.5622752,Montcalm / de Maisonneuve,45.5191392,-73.5578656,28,225.3214286,100,Montreal
2020,november,de la Côte St-Paul / St-Ambroise,45.4676657,-73.5939178,Marché Atwater,45.4802082,-73.5775986,28,718.0714286,71.42857143,Montreal
2020,november,St-Joseph / 8e avenue Lachine,45.4314714,-73.671205,St-Joseph / 34e avenue Lachine,45.4328398,-73.6934915,28,1130.035714,53.57142857,Montreal
2020,november,Chomedey / de Maisonneuve,45.4918003,-73.5840064,Drummond / de Maisonneuve,45.49947,-73.57591,27,390.7777778,92.59259259,Montreal
2020,november,Dorion / Ontario,45.5269913,-73.5582116,Métro Frontenac (Ontario / du Havre),45.533706,-73.5521793,27,296,92.59259259,Montreal
2020,november,Garnier / du Mont-Royal,45.53092,-73.57674,Boyer / du Mont-Royal,45.5274321,-73.5799167,27,242.5185185,96.2962963,Montreal
2020,november,de Brébeuf / du Mont-Royal,45.5294078,-73.5781538,Resther / du Mont-Royal,45.5256282,-73.5817748,27,184.037037,100,Montreal
2020,november,Marquette / Laurier,45.53543,-73.5822,Laurier / de Brébeuf,45.532514,-73.5848111,27,291.8888889,100,Montreal
2020,november,Métro Atwater (Atwater / Ste-Catherine),45.4894762,-73.5845657,Métro Atwater (Atwater / Ste-Catherine),45.4894762,-73.5845657,27,954.7037037,70.37037037,Montreal
2020,november,Jeanne-Mance / St-Viateur,45.5230265,-73.6018404,Bloomfield / Bernard,45.5204578,-73.6082724,27,285.7407407,96.2962963,Montreal
2020,november,Victoria / de Maisonneuve,45.4774286,-73.6001694,de Maisonneuve / Greene,45.4869706,-73.5892931,27,436.1481481,96.2962963,Montreal
2020,november,La Ronde,45.5215654,-73.5353324,Parc Jean-Drapeau (Chemin Macdonald),45.5128006,-73.5311159,27,1122.111111,33.33333333,Montreal
2020,november,Léa-Roback / Sir-Georges-Etienne-Cartier,45.4716686,-73.5826439,de la Commune / St-Sulpice,45.5042425,-73.5534695,27,1624.185185,66.66666667,Montreal
2020,november,Hamilton / Jolicoeur,45.4567028,-73.5976427,Métro Monk (Allard / Beaulieu),45.4510309,-73.5939011,27,291.5185185,88.88888889,Montreal
2020,november,Métro Charlevoix (Centre / Charlevoix),45.4782279,-73.5696512,Bourgeoys / Favard,45.4799304,-73.555921,27,455.1111111,88.88888889,Montreal
2020,november,de la Commune / St-Sulpice,45.5042425,-73.5534695,de la Commune / Place Jacques-Cartier,45.5076101,-73.551836,26,1719.769231,30.76923077,Montreal
2020,november,Mackay / René-Lévesque,45.494435,-73.5740983,Stanley / Sherbrooke,45.5010411,-73.5771775,26,326.4615385,96.15384615,Montreal
2020,november,des Bassins / du Séminaire,45.4905646,-73.5603333,Marché Atwater,45.4802082,-73.5775986,26,818.3846154,65.38461538,Montreal
2020,november,Poupart / Ste-Catherine,45.5290021,-73.5461994,Métro Papineau (Cartier / Ste-Catherine),45.52353,-73.55199,26,310.0384615,100,Montreal
2020,november,Gauthier / Papineau,45.5296663,-73.5673365,Métro Papineau (Cartier / Ste-Catherine),45.52353,-73.55199,26,466.1538462,92.30769231,Montreal
2020,november,de Brébeuf / du Mont-Royal,45.5294078,-73.5781538,Laurier / de Brébeuf,45.532514,-73.5848111,26,211.4615385,100,Montreal
2020,november,Boyer / du Mont-Royal,45.5274321,-73.5799167,Garnier / du Mont-Royal,45.53092,-73.57674,26,232.1923077,92.30769231,Montreal
2020,november,Parc Jeanne Mance (monument sir George-Etienne Cartier),45.5148399,-73.5847789,du Mont-Royal / Clark,45.51941,-73.58685,26,861.8846154,92.30769231,Montreal
2020,november,Marché Atwater,45.4802082,-73.5775986,de la Côte St-Paul / St-Ambroise,45.4676657,-73.5939178,26,800.6153846,76.92307692,Montreal
2020,november,Stanley / Sherbrooke,45.5010411,-73.5771775,Mackay / René-Lévesque,45.494435,-73.5740983,26,424.4230769,92.30769231,Montreal
2020,november,Argyle / de Verdun,45.4530158,-73.571915,Bibliothèque de Verdun (Brown / Bannantyne),45.448262,-73.5778561,26,255,100,Montreal
2020,november,des Bassins / Richmond,45.4876991,-73.564893,Marché Atwater,45.4802082,-73.5775986,26,678.7692308,65.38461538,Montreal
2020,november,des Bassins / Richmond,45.4876991,-73.564893,des Bassins / Richmond,45.4876991,-73.564893,26,1941.5,80.76923077,Montreal
2020,november,St-Joseph / 8e avenue Lachine,45.4314714,-73.671205,Léa-Roback / Sir-Georges-Etienne-Cartier,45.4716686,-73.5826439,26,2222.384615,57.69230769,Montreal
2020,november,des Récollets / McGill,45.5008765,-73.5590056,Young / Wellington,45.4928253,-73.5579783,25,479.08,96,Montreal
2020,november,Prince-Arthur / du Parc,45.51059,-73.57547,Clark / Prince-Arthur,45.5133026,-73.5729611,25,202.64,80,Montreal
2020,november,Regina / de Verdun,45.467369,-73.570769,Métro Lasalle (de Rushbrooke / Caisse),45.4706964,-73.5654224,25,215.44,96,Montreal
2020,november,Valois / Ontario,45.5470481,-73.5434461,Métro Joliette  (Joliette / Hochelaga),45.5469072,-73.5515571,25,292.24,88,Montreal
2020,november,Ste-Émilie / Sir-Georges-Etienne-Cartier,45.472668,-73.5853898,Ste-Émilie / Sir-Georges-Etienne-Cartier,45.472668,-73.5853898,25,1470.68,84,Montreal
2020,november,Métro Lasalle (de Rushbrooke / Caisse),45.4706964,-73.5654224,Place du Commerce,45.46714,-73.54259,25,601.64,92,Montreal
2020,november,de Maisonneuve / Greene,45.4869706,-73.5892931,Victoria / de Maisonneuve,45.4774286,-73.6001694,25,423.16,80,Montreal
2020,november,Melville / de Maisonneuve,45.4818402,-73.595379,Métro Vendôme (de Marlowe / de Maisonneuve),45.4739303,-73.6047345,25,444.28,92,Montreal
2020,november,de la Commune / Berri,45.51086,-73.54983,de la Commune / St-Sulpice,45.5042425,-73.5534695,24,999.9583333,75,Montreal
2020,november,de la Commune / Place Jacques-Cartier,45.5076101,-73.551836,de la Commune / St-Sulpice,45.5042425,-73.5534695,24,1321.083333,54.16666667,Montreal
2020,november,de la Commune / Place Jacques-Cartier,45.5076101,-73.551836,Marché Atwater,45.4802082,-73.5775986,24,1543.791667,50,Montreal
2020,november,Métro Peel (de Maisonneuve / Stanley),45.50038,-73.57507,Chomedey / de Maisonneuve,45.4918003,-73.5840064,24,508.75,79.16666667,Montreal
2020,november,des Bassins / du Séminaire,45.4905646,-73.5603333,de la Commune / St-Sulpice,45.5042425,-73.5534695,24,937.9166667,66.66666667,Montreal
2020,november,Chomedey / de Maisonneuve,45.4918003,-73.5840064,Métro Vendôme (de Marlowe / de Maisonneuve),45.4739303,-73.6047345,24,793.375,75,Montreal
2020,november,St-Mathieu / Ste-Catherine,45.4936796,-73.5791463,Métro Atwater (Atwater / Ste-Catherine),45.4894762,-73.5845657,24,605.4166667,91.66666667,Montreal
2020,november,Garnier / du Mont-Royal,45.53092,-73.57674,Resther / du Mont-Royal,45.5256282,-73.5817748,24,287.2083333,100,Montreal
2020,november,Duluth / St-Denis,45.5208869,-73.5757184,Duluth / St-Denis,45.5208869,-73.5757184,24,1138.541667,79.16666667,Montreal
2020,november,Métro Mont-Royal (Rivard / du Mont-Royal),45.524673,-73.58255,de Mentana / Rachel,45.5249632,-73.5755588,24,384.2916667,91.66666667,Montreal
2020,november,Métro Mont-Royal (Rivard / du Mont-Royal),45.524673,-73.58255,Métro Mont-Royal (Rivard / du Mont-Royal),45.524673,-73.58255,24,1095.625,83.33333333,Montreal
2020,november,Métro Atwater (Atwater / Ste-Catherine),45.4894762,-73.5845657,St-Mathieu / Ste-Catherine,45.4936796,-73.5791463,24,352.625,91.66666667,Montreal
2020,november,Métro Atwater (Atwater / Ste-Catherine),45.4894762,-73.5845657,Metcalfe / St-Catherine,45.5008323,-73.5724595,24,581.9583333,95.83333333,Montreal
2020,november,Métro Atwater (Atwater / Ste-Catherine),45.4894762,-73.5845657,Atwater / Greene,45.4804951,-73.5778266,24,507.125,70.83333333,Montreal
2020,november,Maguire / St-Laurent,45.5246285,-73.5958108,Maguire / St-Laurent,45.5246285,-73.5958108,24,1676.375,95.83333333,Montreal
2020,november,Parc Père-Marquette (Chambord / Rosemont),45.5370878,-73.5932185,Métro Rosemont (de St-Vallier / Rosemont),45.5319549,-73.5981604,24,269.875,91.66666667,Montreal
2020,november,McLynn / Plamondon,45.4891131,-73.6470129,Édouard-Montpetit / de Stirling,45.50723,-73.615085,24,408.1666667,75,Montreal
2020,november,Ryde / Charlevoix,45.4757434,-73.5646007,Métro Charlevoix (Centre / Charlevoix),45.4782279,-73.5696512,24,278.3333333,87.5,Montreal
2020,november,Léa-Roback / Sir-Georges-Etienne-Cartier,45.4716686,-73.5826439,St-Joseph / 8e avenue Lachine,45.4314714,-73.671205,24,2511,58.33333333,Montreal
2020,november,Richardson / de Montmorency,45.4849802,-73.5603333,Métro Charlevoix (Centre / Charlevoix),45.4782279,-73.5696512,24,338.125,79.16666667,Montreal
2020,november,Boyer / Beaubien,45.537041,-73.602026,Louis-Hébert / Beaubien,45.5481864,-73.5920101,24,437.7083333,91.66666667,Montreal
2020,november,Bibliothèque de Verdun (Brown / Bannantyne),45.448262,-73.5778561,Argyle / de Verdun,45.4530158,-73.571915,24,242,100,Montreal
2020,november,St-Joseph / 34e avenue Lachine,45.4328398,-73.6934915,St-Joseph / 8e avenue Lachine,45.4314714,-73.671205,24,1272.625,54.16666667,Montreal
2020,november,St-André / Ontario,45.51889,-73.56353,St-André / Ste-Catherine,45.5164265,-73.5581124,23,166.0869565,100,Montreal
2020,november,Queen / Wellington,45.4976053,-73.5553497,Marché Atwater,45.4802082,-73.5775986,23,1262.434783,73.91304348,Montreal
2020,november,Métro Lucien-L'Allier  (Lucien l'Allier / Argyle),45.4948716,-73.5711238,Guy / Notre-Dame,45.4900422,-73.5671112,23,321.3913043,78.26086957,Montreal
2020,november,Métro Laurier (Rivard / Laurier),45.5276163,-73.5891147,des Érables / Laurier,45.5384608,-73.5776791,23,511.3913043,95.65217391,Montreal
2020,november,Calixa-Lavallée / Sherbrooke,45.52479,-73.56545,de Lanaudière / Marie-Anne,45.5293264,-73.5748065,23,250.4347826,100,Montreal
2020,november,Laurier / de Brébeuf,45.532514,-73.5848111,Marquette / Laurier,45.53543,-73.5822,23,117.1304348,95.65217391,Montreal
2020,november,Métro Atwater (Atwater / Ste-Catherine),45.4894762,-73.5845657,Métro Peel (de Maisonneuve / Stanley),45.50038,-73.57507,23,607.7391304,78.26086957,Montreal
2020,november,du Mont-Royal / Clark,45.51941,-73.58685,Clark / Rachel,45.5173538,-73.5821289,23,193.3913043,100,Montreal
2020,november,St-Dominique / St-Zotique,45.5322646,-73.6110632,Métro Beaubien (de Chateaubriand / Beaubien),45.53536,-73.6036348,23,428.6521739,95.65217391,Montreal
2020,november,Victoria / de Maisonneuve,45.4774286,-73.6001694,Métro Atwater (Atwater / Ste-Catherine),45.4894762,-73.5845657,23,507.826087,91.30434783,Montreal
2020,november,Beatty / de Verdun,45.45073,-73.5725749,Métro Verdun (Willibrord / de Verdun),45.4594877,-73.5720921,23,264.6086957,91.30434783,Montreal
2020,november,Ontario / Viau,45.5594818,-73.535496,Desjardins / Ontario,45.5511919,-73.5408725,23,325.4347826,95.65217391,Montreal
2020,november,St-André / Ste-Catherine,45.5164265,-73.5581124,Métro Papineau (Cartier / Ste-Catherine),45.52353,-73.55199,23,321.4347826,100,Montreal
2020,november,Édouard-Montpetit / de Stirling,45.50723,-73.615085,McLynn / Plamondon,45.4891131,-73.6470129,23,618,78.26086957,Montreal
2020,november,Panet / Ste-Catherine,45.5198453,-73.5546389,Métro Papineau (Cartier / Ste-Catherine),45.52353,-73.55199,23,207.6521739,100,Montreal
2020,november,Cartier / Masson,45.5380207,-73.5835236,Chabot / du Mont-Royal,45.5341851,-73.5735887,23,867.3043478,100,Montreal
2020,november,Shearer / Centre,45.4828251,-73.5620633,Métro Charlevoix (Centre / Charlevoix),45.4782279,-73.5696512,23,256.7391304,100,Montreal
2020,november,St-Jacques / des Seigneurs,45.4891857,-73.5719003,Léa-Roback / Sir-Georges-Etienne-Cartier,45.4716686,-73.5826439,23,1130.826087,100,Montreal
2020,november,Crescent / de Maisonneuve,45.4981116,-73.5776154,Métro Peel (de Maisonneuve / Stanley),45.50038,-73.57507,22,419.5,90.90909091,Montreal
2020,november,de la Commune / St-Sulpice,45.5042425,-73.5534695,de la Commune / Berri,45.51086,-73.54983,22,768.6818182,50,Montreal
2020,november,Roy / St-André,45.5215643,-73.5703674,Roy / St-Laurent,45.5156162,-73.5758083,22,404,95.45454545,Montreal
2020,november,Drummond / de Maisonneuve,45.49947,-73.57591,Chomedey / de Maisonneuve,45.4918003,-73.5840064,22,423.1818182,90.90909091,Montreal
2020,november,University / Milton,45.5065112,-73.5766692,Milton / du Parc,45.5093614,-73.5738637,22,172.0909091,100,Montreal
2020,november,University / Milton,45.5065112,-73.5766692,Union / René-Lévesque,45.5023504,-73.5665828,22,309.9545455,100,Montreal
2020,november,Chomedey / de Maisonneuve,45.4918003,-73.5840064,Métro Guy-Concordia (Guy / St-Catherine),45.4949815,-73.5777327,22,372.1363636,86.36363636,Montreal
2020,november,Mackay / de Maisonneuve,45.4968299,-73.5791302,St-Mathieu / Sherbrooke,45.4957891,-73.5825956,22,215.2727273,100,Montreal
2020,november,Montcalm / de Maisonneuve,45.5191392,-73.5578656,Montcalm / Ontario,45.521081,-73.5622752,22,180.7272727,100,Montreal
2020,november,Métro Laurier (Rivard / Laurier),45.5276163,-73.5891147,Jeanne-Mance / Laurier,45.5202763,-73.5949762,22,340.6363636,95.45454545,Montreal
2020,november,des Érables / du Mont-Royal,45.5358535,-73.5720545,Cartier / Masson,45.5380207,-73.5835236,22,633.8636364,95.45454545,Montreal
2020,november,Marquette / du Mont-Royal,45.53229,-73.57544,Émile-Duployé / Sherbrooke,45.5272931,-73.5648072,22,265.2272727,100,Montreal
2020,november,Métro Mont-Royal (Rivard / du Mont-Royal),45.524673,-73.58255,de Bordeaux / Marie-Anne,45.5334091,-73.5706571,22,466,100,Montreal
2020,november,Roy / St-Laurent,45.5156162,-73.5758083,Métro Sherbrooke (de Rigaud / St-Denis),45.5179989,-73.5681841,22,333.0454545,95.45454545,Montreal
2020,november,Ontario / Sicard,45.5562619,-73.5374406,Métro Viau (Pierre-de-Coubertin / Viau),45.5617828,-73.5466111,22,377.1818182,68.18181818,Montreal
2020,november,Métro Pie-IX (Pierre-de-Coubertin / Pie-IX),45.5542138,-73.5515597,Bennett / Ste-Catherine,45.5530533,-73.5324275,22,474.3636364,90.90909091,Montreal
2020,november,de Maisonneuve / Greene,45.4869706,-73.5892931,Métro Vendôme (de Marlowe / de Maisonneuve),45.4739303,-73.6047345,22,534.1818182,81.81818182,Montreal
2020,november,Melville / de Maisonneuve,45.4818402,-73.595379,Métro Atwater (Atwater / Ste-Catherine),45.4894762,-73.5845657,22,710.6363636,90.90909091,Montreal
2020,november,Métro Guy-Concordia (Guy / St-Catherine),45.4949815,-73.5777327,Guy / Notre-Dame,45.4900422,-73.5671112,22,297.8636364,95.45454545,Montreal
2020,november,Bourgeoys / Favard,45.4799304,-73.555921,Métro Charlevoix (Centre / Charlevoix),45.4782279,-73.5696512,22,431.5,95.45454545,Montreal
2020,november,Logan / de Champlain,45.5231943,-73.5558426,Métro St-Laurent (de Maisonneuve / St-Laurent),45.5111177,-73.564788,22,727.8181818,90.90909091,Montreal
2020,november,Logan / de Champlain,45.5231943,-73.5558426,Métro Papineau (Cartier / Ste-Catherine),45.52353,-73.55199,22,253.6818182,81.81818182,Montreal
2020,november,Atateken / du Square Amherst,45.5206338,-73.563906,Montcalm / de Maisonneuve,45.5191392,-73.5578656,21,191.7142857,95.23809524,Montreal
2020,november,Atateken / du Square Amherst,45.5206338,-73.563906,Dorion / Ontario,45.5269913,-73.5582116,21,323.8095238,100,Montreal
2020,november,Atateken / du Square Amherst,45.5206338,-73.563906,St-André / Ste-Catherine,45.5164265,-73.5581124,21,259.8571429,100,Montreal
2020,november,Métro Sherbrooke (de Rigaud / St-Denis),45.5179989,-73.5681841,de l'Hôtel-de-Ville / Sherbrooke,45.5145247,-73.5683557,21,207,100,Montreal
2020,november,de l'Hôtel-de-Ville / Sherbrooke,45.5145247,-73.5683557,University / Milton,45.5065112,-73.5766692,21,397.9047619,100,Montreal
2020,november,St-Alexandre / Ste-Catherine,45.5052735,-73.5674787,des Récollets / McGill,45.5008765,-73.5590056,21,297.7142857,100,Montreal
2020,november,Métro Vendôme (de Marlowe / de Maisonneuve),45.4739303,-73.6047345,Métro Atwater (Atwater / Ste-Catherine),45.4894762,-73.5845657,21,823.6190476,95.23809524,Montreal
2020,november,Duke / Brennan,45.4955814,-73.5537109,Marché Atwater,45.4802082,-73.5775986,21,1023.47619,42.85714286,Montreal
2020,november,des Bassins / du Séminaire,45.4905646,-73.5603333,des Bassins / du Séminaire,45.4905646,-73.5603333,21,1401.619048,76.19047619,Montreal
2020,november,Métro Lucien-L'Allier  (Lucien l'Allier / Argyle),45.4948716,-73.5711238,des Bassins / du Séminaire,45.4905646,-73.5603333,21,279.047619,95.23809524,Montreal
2020,november,St-Mathieu / Ste-Catherine,45.4936796,-73.5791463,Joseph-Manseau / René-Lévesque,45.4916865,-73.5767671,21,191.6666667,90.47619048,Montreal
2020,november,Métro Papineau (Cartier / Ste-Catherine),45.52353,-73.55199,Dorion / Ontario,45.5269913,-73.5582116,21,436.2857143,100,Montreal
2020,november,Métro Papineau (Cartier / Ste-Catherine),45.52353,-73.55199,Logan / de Champlain,45.5231943,-73.5558426,21,252.7142857,80.95238095,Montreal
2020,november,Dorion / Ontario,45.5269913,-73.5582116,Métro Papineau (Cartier / Ste-Catherine),45.52353,-73.55199,21,386.8095238,100,Montreal
2020,november,Métro Laurier (Rivard / Laurier),45.5276163,-73.5891147,Henri-Julien / du Carmel,45.5278394,-73.5948211,21,315.2380952,100,Montreal
2020,november,Émile-Duployé / Sherbrooke,45.5272931,-73.5648072,Métro Sherbrooke (de Rigaud / St-Denis),45.5179989,-73.5681841,21,663.5714286,95.23809524,Montreal
2020,november,Marquette / du Mont-Royal,45.53229,-73.57544,Boyer / du Mont-Royal,45.5274321,-73.5799167,21,281.1904762,90.47619048,Montreal
2020,november,Ste-Famille / Sherbrooke,45.5100715,-73.5707523,Prince-Arthur / du Parc,45.51059,-73.57547,21,165.5714286,100,Montreal
2020,november,Square St-Louis (du Square St-Louis / Laval),45.5160908,-73.5701287,Roy / St-Laurent,45.5156162,-73.5758083,21,243.3333333,95.23809524,Montreal
2020,november,Parc Jeanne Mance (monument sir George-Etienne Cartier),45.5148399,-73.5847789,St-Dominique / Rachel,45.518593,-73.581566,21,290.2380952,100,Montreal
2020,november,Parc Jeanne-Mance (du Mont-Royal / du Parc),45.517,-73.589,Métro Mont-Royal (Rivard / du Mont-Royal),45.524673,-73.58255,21,363.2380952,80.95238095,Montreal
2020,november,4e avenue / de Verdun,45.4568845,-73.572607,2e avenue / Wellington,45.4578935,-73.5675282,21,250.6666667,95.23809524,Montreal
2020,november,Jean-Brillant / de la Côte-des-Neiges,45.495415,-73.6223406,de Kent / de la Côte-des-Neiges,45.5014493,-73.6330506,21,982.3809524,85.71428571,Montreal
2020,november,Regina / de Verdun,45.467369,-73.570769,Hickson / Wellington,45.4648925,-73.5669979,21,306.8095238,100,Montreal
2020,november,Marché Atwater,45.4802082,-73.5775986,de la Commune / Place Jacques-Cartier,45.5076101,-73.551836,21,1378.571429,57.14285714,Montreal
2020,november,de Maisonneuve / Greene,45.4869706,-73.5892931,Métro Atwater (Atwater / Ste-Catherine),45.4894762,-73.5845657,21,351.952381,100,Montreal
2020,november,Ontario / Viau,45.5594818,-73.535496,Métro Viau (Pierre-de-Coubertin / Viau),45.5617828,-73.5466111,21,291.7142857,95.23809524,Montreal
2020,november,Young / Wellington,45.4928253,-73.5579783,des Récollets / McGill,45.5008765,-73.5590056,21,369.6190476,90.47619048,Montreal
2020,november,Bennett / Ste-Catherine,45.5530533,-73.5324275,Desjardins / Ontario,45.5511919,-73.5408725,21,319.952381,95.23809524,Montreal
2020,november,de Bordeaux / Marie-Anne,45.5334091,-73.5706571,Métro Mont-Royal (Rivard / du Mont-Royal),45.524673,-73.58255,21,501.0952381,95.23809524,Montreal
2020,november,LaSalle / Godin,45.4469345,-73.5721993,Parc des Rapides (LaSalle / 6e avenue),45.4294714,-73.5930992,21,1239.809524,52.38095238,Montreal
2020,november,Métro Sherbrooke (de Rigaud / St-Denis),45.5179989,-73.5681841,Roy / St-Denis,45.51908,-73.5727,20,255.55,95,Montreal
2020,november,de la Commune / St-Sulpice,45.5042425,-73.5534695,des Bassins / Richmond,45.4876991,-73.564893,20,889.85,70,Montreal
2020,november,Métro Vendôme (de Marlowe / de Maisonneuve),45.4739303,-73.6047345,Chomedey / de Maisonneuve,45.4918003,-73.5840064,20,1099.85,90,Montreal
2020,november,Métro Villa-Maria (de Monkland / Décarie),45.4789684,-73.6195993,Park Row O / Sherbrooke,45.4607294,-73.6340725,20,593.55,100,Montreal
2020,november,Plessis / Ontario,45.5234921,-73.5607302,Montcalm / de Maisonneuve,45.5191392,-73.5578656,20,223.35,100,Montreal
2020,november,Dorion / Ontario,45.5269913,-73.5582116,Poupart / Ontario,45.5319389,-73.5534386,20,191.6,100,Montreal
2020,november,Poupart / Ontario,45.5319389,-73.5534386,Panet / Ste-Catherine,45.5198453,-73.5546389,20,1281.45,80,Montreal
2020,november,Métro Laurier (Rivard / Laurier),45.5276163,-73.5891147,de Bordeaux / Masson,45.5389844,-73.5824454,20,419.15,100,Montreal
2020,november,Gauthier / de Lorimier,45.5316747,-73.5653704,Métro Champ-de-Mars (Viger / Sanguinet),45.5101628,-73.5566371,20,842.3,100,Montreal
2020,november,Messier / du Mont-Royal,45.5371141,-73.5710031,Marquette / du Mont-Royal,45.53229,-73.57544,20,487.9,100,Montreal
2020,november,Marquette / du Mont-Royal,45.53229,-73.57544,Marquette / Rachel,45.5298016,-73.5702896,20,248.7,90,Montreal
2020,november,Marquette / du Mont-Royal,45.53229,-73.57544,Marquette / Laurier,45.53543,-73.5822,20,256.5,95,Montreal
2020,november,Marquette / du Mont-Royal,45.53229,-73.57544,Métro Mont-Royal (Rivard / du Mont-Royal),45.524673,-73.58255,20,424.05,85,Montreal
2020,november,Laurier / de Brébeuf,45.532514,-73.5848111,Rachel / de Brébeuf,45.52689,-73.57264,20,512.9,85,Montreal
2020,november,de Mentana / Rachel,45.5249632,-73.5755588,Boyer / du Mont-Royal,45.5274321,-73.5799167,20,198.5,100,Montreal
2020,november,Métro Mont-Royal (Rivard / du Mont-Royal),45.524673,-73.58255,Laurier / de Brébeuf,45.532514,-73.5848111,20,839.8,90,Montreal
2020,november,de Bullion / St-Joseph,45.5240365,-73.5901433,du Mont-Royal / Clark,45.51941,-73.58685,20,365.25,95,Montreal
2020,november,Prince-Arthur / du Parc,45.51059,-73.57547,Ste-Famille / Sherbrooke,45.5100715,-73.5707523,20,221.25,100,Montreal
2020,november,Square St-Louis (du Square St-Louis / Laval),45.5160908,-73.5701287,Square St-Louis (du Square St-Louis / Laval),45.5160908,-73.5701287,20,1198.95,100,Montreal
2020,november,Jeanne-Mance / Laurier,45.5202763,-73.5949762,Drolet / Laurier,45.5262519,-73.5897584,20,219.05,100,Montreal
2020,november,de Hampton / de Monkland,45.4711793,-73.6270022,de Hampton / de Monkland,45.4711793,-73.6270022,20,1756.75,55,Montreal
2020,november,Louis-Hébert / Bélanger,45.5515852,-73.5991649,Cartier / Bélanger,45.5467974,-73.6026639,20,213.6,95,Montreal
2020,november,Ontario / Sicard,45.5562619,-73.5374406,Bennett / Pierre-de-Coubertin,45.5581597,-73.5484001,20,360.2,95,Montreal
2020,november,15e avenue / Masson,45.553898,-73.5713866,Métro Joliette  (Joliette / Hochelaga),45.5469072,-73.5515571,20,484.95,85,Montreal
2020,november,Métro Préfontaine (Moreau / Hochelaga),45.5412155,-73.5537136,Dézéry / Ontario,45.5409579,-73.5470295,20,167.95,95,Montreal
2020,november,Métro Viau (Pierre-de-Coubertin / Viau),45.5617828,-73.5466111,Ontario / Sicard,45.5562619,-73.5374406,20,373.2,70,Montreal
2020,november,Ste-Émilie / Sir-Georges-Etienne-Cartier,45.472668,-73.5853898,Marché Atwater,45.4802082,-73.5775986,20,427.6,75,Montreal
2020,november,Marché Atwater,45.4802082,-73.5775986,Marché Atwater,45.4802082,-73.5775986,20,1984.2,35,Montreal
2020,november,Marché Atwater,45.4802082,-73.5775986,Young / Wellington,45.4928253,-73.5579783,20,1461.8,65,Montreal
2020,november,Hôpital général juif (de la Côte Ste-Catherine / Légaré),45.496302,-73.629822,de Kent / de la Côte-des-Neiges,45.5014493,-73.6330506,20,797.8,100,Montreal
2020,november,Métro Lasalle (de Rushbrooke / Caisse),45.4706964,-73.5654224,Métro Lasalle (de Rushbrooke / Caisse),45.4706964,-73.5654224,20,1679.35,85,Montreal
2020,november,Métro Beaubien (de Chateaubriand / Beaubien),45.53536,-73.6036348,Molson / Beaubien,45.5496859,-73.5911545,20,565.55,100,Montreal
2020,november,Ball / Querbes,45.5311775,-73.632136,Ball / Querbes,45.5311775,-73.632136,20,2025.35,60,Montreal
2020,november,Panet / Ste-Catherine,45.5198453,-73.5546389,Poupart / Ste-Catherine,45.5290021,-73.5461994,20,394.5,95,Montreal
2020,november,Cartier / Masson,45.5380207,-73.5835236,Cartier / Masson,45.5380207,-73.5835236,20,1823.6,100,Montreal
2020,november,du Mont-Royal / Augustin-Frigon,45.5437632,-73.5677201,Métro Préfontaine (Moreau / Hochelaga),45.5412155,-73.5537136,20,330.45,100,Montreal
2020,november,Jogues / Allard,45.4500203,-73.6003062,Métro Monk (Allard / Beaulieu),45.4510309,-73.5939011,20,271.4,100,Montreal
2020,november,Bennett / Pierre-de-Coubertin,45.5581597,-73.5484001,Marché Maisonneuve,45.5532188,-73.5397822,20,323.2,90,Montreal
2020,november,Parc nature de l'Île-de-la-Visitation (Gouin / Bruchési),45.5782708,-73.6559513,Parc nature de l'Île-de-la-Visitation (Gouin / Bruchési),45.5782708,-73.6559513,20,1517.85,25,Montreal
2020,november,Métro Charlevoix (Centre / Charlevoix),45.4782279,-73.5696512,Augustin-Cantin / Shearer,45.4839017,-73.5636324,20,343.6,100,Montreal
2020,november,Métro Champ-de-Mars (Viger / Sanguinet),45.5101628,-73.5566371,des Bassins / du Séminaire,45.4905646,-73.5603333,19,1018.315789,89.47368421,Montreal
2020,november,Crescent / de Maisonneuve,45.4981116,-73.5776154,St-Mathieu / Ste-Catherine,45.4936796,-73.5791463,19,377.6842105,89.47368421,Montreal
2020,november,Atateken / du Square Amherst,45.5206338,-73.563906,Métro St-Laurent (de Maisonneuve / St-Laurent),45.5111177,-73.564788,19,406.3684211,100,Montreal
2020,november,Duke / Brennan,45.4955814,-73.5537109,de la Commune / Place Jacques-Cartier,45.5076101,-73.551836,19,1150.736842,42.10526316,Montreal
2020,november,Métro Lucien-L'Allier  (Lucien l'Allier / Argyle),45.4948716,-73.5711238,Ottawa / William,45.4897273,-73.5640629,19,349.4736842,89.47368421,Montreal
2020,november,Métro Villa-Maria (de Monkland / Décarie),45.4789684,-73.6195993,Harvard / de Monkland,45.4745652,-73.6240357,19,260.8421053,100,Montreal
2020,november,Parthenais / Ste-Catherine,45.5260059,-73.5488641,Métro Frontenac (Ontario / du Havre),45.533706,-73.5521793,19,363.4210526,100,Montreal
2020,november,Métro Papineau (Cartier / Ste-Catherine),45.52353,-73.55199,Métro Papineau (Cartier / Ste-Catherine),45.52353,-73.55199,19,1492.526316,73.68421053,Montreal
2020,november,Fullum / Sherbrooke,45.533924,-73.562425,Messier / du Mont-Royal,45.5371141,-73.5710031,19,282.5789474,100,Montreal
2020,november,Métro Laurier (Rivard / Laurier),45.5276163,-73.5891147,Métro Mont-Royal (Rivard / du Mont-Royal),45.524673,-73.58255,19,262.5789474,100,Montreal
2020,november,Gauthier / Parthenais,45.5329263,-73.5637799,des Érables / du Mont-Royal,45.5358535,-73.5720545,19,254.3157895,100,Montreal
2020,november,Messier / du Mont-Royal,45.5371141,-73.5710031,des Érables / Laurier,45.5384608,-73.5776791,19,248.6315789,100,Montreal
2020,november,Laurier / de Brébeuf,45.532514,-73.5848111,Laurier / de Brébeuf,45.532514,-73.5848111,19,1141.105263,73.68421053,Montreal
2020,november,Boyer / du Mont-Royal,45.5274321,-73.5799167,de Mentana / Rachel,45.5249632,-73.5755588,19,175.3157895,94.73684211,Montreal
2020,november,St-Christophe / Cherrier,45.5203683,-73.5684228,St-Christophe / Cherrier,45.5203683,-73.5684228,19,2074.842105,94.73684211,Montreal
2020,november,Laval / du Mont-Royal,45.5223646,-73.5841459,Duluth / de l'Esplanade,45.515092,-73.5811418,19,374.8421053,94.73684211,Montreal
2020,november,Métro Mont-Royal (Rivard / du Mont-Royal),45.524673,-73.58255,du Mont-Royal / Clark,45.51941,-73.58685,19,606.3684211,84.21052632,Montreal
2020,november,Resther / du Mont-Royal,45.5256282,-73.5817748,Garnier / du Mont-Royal,45.53092,-73.57674,19,439.1052632,100,Montreal
2020,november,Pontiac / Gilford,45.5270093,-73.585766,Garnier / St-Joseph,45.5329775,-73.5812223,19,251.3684211,100,Montreal
2020,november,Pontiac / Gilford,45.5270093,-73.585766,de Bordeaux / Masson,45.5389844,-73.5824454,19,554.2631579,73.68421053,Montreal
2020,november,Pontiac / Gilford,45.5270093,-73.585766,Fullum / Gilford,45.5392237,-73.5738368,19,491.3684211,94.73684211,Montreal
2020,november,Métro Atwater (Atwater / Ste-Catherine),45.4894762,-73.5845657,Victoria / de Maisonneuve,45.4774286,-73.6001694,19,601.4210526,94.73684211,Montreal
2020,november,Métro Atwater (Atwater / Ste-Catherine),45.4894762,-73.5845657,Tupper / du Fort,45.4912296,-73.5807824,19,312.2631579,100,Montreal
2020,november,Villeneuve / St-Laurent,45.5213417,-73.5894191,Pontiac / Gilford,45.5270093,-73.585766,19,245.2105263,94.73684211,Montreal
2020,november,Prince-Arthur / du Parc,45.51059,-73.57547,Milton / Durocher,45.508141,-73.5749298,19,172.3157895,100,Montreal
2020,november,des Érables / Laurier,45.5384608,-73.5776791,des Érables / du Mont-Royal,45.5358535,-73.5720545,19,212.9473684,100,Montreal
2020,november,Chambord / Beaubien,45.5399322,-73.5993433,Chambord / Beaubien,45.5399322,-73.5993433,19,1187.736842,100,Montreal
2020,november,Cartier / Bélanger,45.5467974,-73.6026639,Louis-Hébert / Bélanger,45.5515852,-73.5991649,19,217.9473684,100,Montreal
2020,november,St-Dominique / Laurier,45.5236149,-73.5924574,Métro Laurier (Rivard / Laurier),45.5276163,-73.5891147,19,172.5789474,100,Montreal
2020,november,de Lanaudière / Marie-Anne,45.5293264,-73.5748065,Calixa-Lavallée / Sherbrooke,45.52479,-73.56545,19,289.2105263,94.73684211,Montreal
2020,november,de Laprairie / Centre,45.4805925,-73.5657781,Métro Charlevoix (Centre / Charlevoix),45.4782279,-73.5696512,19,454.8421053,84.21052632,Montreal
2020,november,Dézéry / Ontario,45.5409579,-73.5470295,Métro Préfontaine (Moreau / Hochelaga),45.5412155,-73.5537136,19,198.2105263,94.73684211,Montreal
2020,november,Valois / Ontario,45.5470481,-73.5434461,Aylwin / Ontario,45.5443031,-73.5454725,19,184.6842105,100,Montreal
2020,november,Stanley / Sherbrooke,45.5010411,-73.5771775,Dorion / Ontario,45.5269913,-73.5582116,19,764.5789474,94.73684211,Montreal
2020,november,Montcalm / Ontario,45.521081,-73.5622752,Plessis / Ontario,45.5234921,-73.5607302,19,163.5789474,100,Montreal
2020,november,Métro Rosemont (de St-Vallier / Rosemont),45.5319549,-73.5981604,Parc Père-Marquette (Chambord / Rosemont),45.5370878,-73.5932185,19,239.4736842,100,Montreal
2020,november,Métro Université de Montréal (Édouard-Montpetit / Louis-Collin),45.50364,-73.618269,Édouard-Montpetit / de Stirling,45.50723,-73.615085,19,164.6315789,94.73684211,Montreal
2020,november,Durocher / Bernard,45.5222253,-73.6066872,Labadie / du Parc,45.5198947,-73.5968274,19,283.8947368,94.73684211,Montreal
2020,november,de Gaspé / St-Viateur,45.5277483,-73.5974389,de Brébeuf / du Mont-Royal,45.5294078,-73.5781538,19,555.9473684,94.73684211,Montreal
2020,november,Ernest-Gendreau / du Mont-Royal,45.5497137,-73.5638483,Métro Joliette  (Joliette / Hochelaga),45.5469072,-73.5515571,19,286.1052632,100,Montreal
2020,november,Casgrain / Mozart,45.5347273,-73.6147928,St-Dominique / St-Zotique,45.5322646,-73.6110632,19,247.7894737,89.47368421,Montreal
2020,november,St-Mathieu / Sherbrooke,45.4957891,-73.5825956,Metcalfe / du Square-Dorchester,45.5002081,-73.5711379,19,355.6842105,100,Montreal
2020,november,Logan / de Champlain,45.5231943,-73.5558426,Plessis / Ontario,45.5234921,-73.5607302,19,329.6315789,100,Montreal
2020,november,Chabanel / de l'Esplanade,45.5406855,-73.6533764,Métro Crémazie (Crémazie / Lajeunesse),45.5464075,-73.6384284,19,515.0526316,100,Montreal
2020,november,Smith / Peel,45.4927606,-73.5564105,de la Commune / St-Sulpice,45.5042425,-73.5534695,19,506.5263158,73.68421053,Montreal
2020,november,Smith / Peel,45.4927606,-73.5564105,Square Victoria (Viger / du Square-Victoria),45.50206,-73.56295,19,446.3684211,100,Montreal
2020,november,Métro Charlevoix (Centre / Charlevoix),45.4782279,-73.5696512,Shearer / Centre,45.4828251,-73.5620633,19,312.5263158,100,Montreal
2020,november,BAnQ (Berri / de Maisonneuve),45.515299,-73.561273,Montcalm / Ontario,45.521081,-73.5622752,18,267.3333333,100,Montreal
2020,november,des Récollets / McGill,45.5008765,-73.5590056,Marché Atwater,45.4802082,-73.5775986,18,1211.444444,33.33333333,Montreal
2020,november,University / Milton,45.5065112,-73.5766692,Prince-Arthur / du Parc,45.51059,-73.57547,18,225.8333333,88.88888889,Montreal
2020,november,Métro Vendôme (de Marlowe / de Maisonneuve),45.4739303,-73.6047345,Hillside / Ste-Catherine,45.482826,-73.5908434,18,567.1666667,77.77777778,Montreal
2020,november,Mackay / René-Lévesque,45.494435,-73.5740983,Crescent / de Maisonneuve,45.4981116,-73.5776154,18,690.0555556,66.66666667,Montreal
2020,november,Métro Lucien-L'Allier  (Lucien l'Allier / Argyle),45.4948716,-73.5711238,Ottawa / Peel,45.4939202,-73.5595018,18,400.3888889,83.33333333,Montreal
2020,november,Mackay / de Maisonneuve,45.4968299,-73.5791302,de Maisonneuve / Mansfield (sud),45.5020539,-73.5734653,18,313.4444444,94.44444444,Montreal
2020,november,Métro Villa-Maria (de Monkland / Décarie),45.4789684,-73.6195993,Benny / Sherbrooke,45.464877,-73.6265972,18,596.8333333,100,Montreal
2020,november,Lincoln / du Fort,45.493034,-73.583836,Stanley / Sherbrooke,45.5010411,-73.5771775,18,446.2222222,100,Montreal
2020,november,Parthenais / Ste-Catherine,45.5260059,-73.5488641,Métro Papineau (Cartier / Ste-Catherine),45.52353,-73.55199,18,341.7777778,100,Montreal
2020,november,Métro Papineau (Cartier / Ste-Catherine),45.52353,-73.55199,Poupart / Ontario,45.5319389,-73.5534386,18,457.1666667,94.44444444,Montreal
2020,november,de Rouen / Fullum,45.5321632,-73.5585429,Poupart / Ontario,45.5319389,-73.5534386,18,155.7222222,100,Montreal
2020,november,Fullum / Sherbrooke,45.533924,-73.562425,Marquette / du Mont-Royal,45.53229,-73.57544,18,500.5,94.44444444,Montreal
2020,november,Métro Laurier (Rivard / Laurier),45.5276163,-73.5891147,Maguire / St-Laurent,45.5246285,-73.5958108,18,270.3888889,94.44444444,Montreal
2020,november,Marquette / Rachel,45.5298016,-73.5702896,Métro Champ-de-Mars (Viger / Sanguinet),45.5101628,-73.5566371,18,805,100,Montreal
2020,november,Messier / du Mont-Royal,45.5371141,-73.5710031,Fullum / Sherbrooke,45.533924,-73.562425,18,265.1111111,100,Montreal
2020,november,Marquette / Laurier,45.53543,-73.5822,de Bordeaux / Masson,45.5389844,-73.5824454,18,364.1111111,94.44444444,Montreal
2020,november,St-Hubert / Duluth,45.5224257,-73.5741842,Roy / St-Laurent,45.5156162,-73.5758083,18,259.8888889,94.44444444,Montreal
2020,november,Rivard / Rachel,45.5222776,-73.5775906,Métro Mont-Royal (Rivard / du Mont-Royal),45.524673,-73.58255,18,415,88.88888889,Montreal
2020,november,Clark / Rachel,45.5173538,-73.5821289,du Mont-Royal / Clark,45.51941,-73.58685,18,150.3333333,100,Montreal
2020,november,Métro Mont-Royal (Rivard / du Mont-Royal),45.524673,-73.58255,Boyer / du Mont-Royal,45.5274321,-73.5799167,18,226.9444444,100,Montreal
2020,november,Resther / du Mont-Royal,45.5256282,-73.5817748,Marquette / du Mont-Royal,45.53229,-73.57544,18,299.5555556,100,Montreal
2020,november,Métro Atwater (Atwater / Ste-Catherine),45.4894762,-73.5845657,Joseph-Manseau / René-Lévesque,45.4916865,-73.5767671,18,577.4444444,83.33333333,Montreal
2020,november,Villeneuve / St-Laurent,45.5213417,-73.5894191,Bloomfield / Bernard,45.5204578,-73.6082724,18,504.3888889,100,Montreal
2020,november,Maguire / St-Laurent,45.5246285,-73.5958108,St-Dominique / St-Zotique,45.5322646,-73.6110632,18,406.7777778,88.88888889,Montreal
2020,november,Ste-Famille / Sherbrooke,45.5100715,-73.5707523,Ste-Famille / Sherbrooke,45.5100715,-73.5707523,18,1943.722222,61.11111111,Montreal
2020,november,Prince-Arthur / du Parc,45.51059,-73.57547,University / Milton,45.5065112,-73.5766692,18,224.5,100,Montreal
2020,november,Milton / Clark,45.5125414,-73.5706772,Prince-Arthur / du Parc,45.51059,-73.57547,18,178.7222222,88.88888889,Montreal
2020,november,Parc Jeanne Mance (monument sir George-Etienne Cartier),45.5148399,-73.5847789,Waverly / St-Viateur,45.5238561,-73.6001265,18,459.6111111,88.88888889,Montreal
2020,november,Laval / Duluth,45.5192162,-73.5771802,Métro St-Laurent (de Maisonneuve / St-Laurent),45.5111177,-73.564788,18,412.7777778,88.88888889,Montreal
2020,november,Jeanne-Mance / Laurier,45.5202763,-73.5949762,Laurier / de Brébeuf,45.532514,-73.5848111,18,534.0555556,88.88888889,Montreal
2020,november,Bloomfield / Bernard,45.5204578,-73.6082724,Querbes / Laurier,45.51754,-73.5978319,18,277.3888889,94.44444444,Montreal
2020,november,St-Cyril / Wiseman,45.5208548,-73.6157396,Bloomfield / Bernard,45.5204578,-73.6082724,18,287.8888889,94.44444444,Montreal
2020,november,St-Dominique / St-Zotique,45.5322646,-73.6110632,St-Dominique / St-Zotique,45.5322646,-73.6110632,18,853.7222222,94.44444444,Montreal
2020,november,Boyer / St-Zotique,45.53848,-73.60556,Boyer / Beaubien,45.537041,-73.602026,18,315.7777778,83.33333333,Montreal
2020,november,Jean-Brillant / de la Côte-des-Neiges,45.495415,-73.6223406,Ellendale / de la Côte-des-Neiges,45.499757,-73.629298,18,297.5,100,Montreal
2020,november,Marcil / Sherbrooke,45.471743,-73.613924,Métro Vendôme (de Marlowe / de Maisonneuve),45.4739303,-73.6047345,18,667.5555556,94.44444444,Montreal
2020,november,10e avenue / Masson,45.5503765,-73.5737336,1ère avenue / Masson,45.5451997,-73.5764507,18,337.8333333,88.88888889,Montreal
2020,november,1ère avenue / Masson,45.5451997,-73.5764507,Cartier / Masson,45.5380207,-73.5835236,18,619.5,100,Montreal
2020,november,Omer-Lavallée / du Midway,45.545776,-73.5621746,d'Orléans / Masson,45.557192,-73.569847,18,524.5,77.77777778,Montreal
2020,november,Métro Joliette  (Joliette / Hochelaga),45.5469072,-73.5515571,Desjardins / Ontario,45.5511919,-73.5408725,18,407.9444444,100,Montreal
2020,november,Aylwin / Ontario,45.5443031,-73.5454725,Valois / Ontario,45.5470481,-73.5434461,18,145.2222222,94.44444444,Montreal
2020,november,Marché Atwater,45.4802082,-73.5775986,de la Commune / Berri,45.51086,-73.54983,18,1625.611111,38.88888889,Montreal
2020,november,Marché Atwater,45.4802082,-73.5775986,Léa-Roback / Sir-Georges-Etienne-Cartier,45.4716686,-73.5826439,18,1167.888889,61.11111111,Montreal
2020,november,Métro Snowdon (de Westbury / Queen-Mary),45.4853847,-73.6281422,Earnscliffe / Queen-Mary,45.4818451,-73.6303738,18,509.4444444,77.77777778,Montreal
2020,november,Métro Verdun (Willibrord / de Verdun),45.4594877,-73.5720921,Bibliothèque de Verdun (Brown / Bannantyne),45.448262,-73.5778561,18,450.9444444,88.88888889,Montreal
2020,november,Métro Lasalle (de Rushbrooke / Caisse),45.4706964,-73.5654224,Regina / de Verdun,45.467369,-73.570769,18,325.6666667,100,Montreal
2020,november,Hillside / Ste-Catherine,45.482826,-73.5908434,Métro Vendôme (de Marlowe / de Maisonneuve),45.4739303,-73.6047345,18,466.3888889,61.11111111,Montreal
2020,november,Léa-Roback / Sir-Georges-Etienne-Cartier,45.4716686,-73.5826439,des Bassins / du Séminaire,45.4905646,-73.5603333,18,929.1666667,50,Montreal
2020,november,Métro Monk (Allard / Beaulieu),45.4510309,-73.5939011,Jogues / Allard,45.4500203,-73.6003062,18,399.2222222,100,Montreal
2020,november,de Mentana / Gilford,45.5287236,-73.5838589,Pontiac / Gilford,45.5270093,-73.585766,18,115.2222222,100,Montreal
2020,november,Métro Rosemont (de St-Vallier / Rosemont),45.5319549,-73.5981604,Cartier / Dandurand,45.5392356,-73.5859457,18,424.9444444,100,Montreal
2020,november,Métro Beaubien (de Chateaubriand / Beaubien),45.53536,-73.6036348,Chabot / Beaubien,45.5443755,-73.5956445,18,353.3333333,77.77777778,Montreal
2020,november,Marquette / Jean-Talon,45.5474078,-73.6076689,Chabot / Villeray,45.5522894,-73.6130065,18,233.1666667,100,Montreal
2020,november,Édouard-Montpetit / de Stirling,45.50723,-73.615085,Parc Kent (de Kent / Hudson),45.5057209,-73.6294591,18,457.6666667,44.44444444,Montreal
2020,november,Métro Université de Montréal (Édouard-Montpetit / Louis-Collin),45.50364,-73.618269,McLynn / Plamondon,45.4891131,-73.6470129,18,702.5555556,77.77777778,Montreal
2020,november,Drolet / Laurier,45.5262519,-73.5897584,Jeanne-Mance / Laurier,45.5202763,-73.5949762,18,330.0555556,100,Montreal
2020,november,Aylmer / Prince-Arthur,45.5085669,-73.5776979,Prince-Arthur / St-Urbain,45.5125874,-73.5737389,18,171.7222222,100,Montreal
2020,november,Labadie / du Parc,45.5198947,-73.5968274,Durocher / Bernard,45.5222253,-73.6066872,18,394.9444444,94.44444444,Montreal
2020,november,Rosemont / Viau,45.5683302,-73.5666633,Métro Viau (Pierre-de-Coubertin / Viau),45.5617828,-73.5466111,18,658,94.44444444,Montreal
2020,november,Clark / Ontario,45.5108239,-73.5671715,Métro Viau (Pierre-de-Coubertin / Viau),45.5617828,-73.5466111,17,552.3529412,94.11764706,Montreal
2020,november,BAnQ (Berri / de Maisonneuve),45.515299,-73.561273,de Maisonneuve / Berri,45.5156698,-73.5610092,17,75.41176471,100,Montreal
2020,november,Atateken / du Square Amherst,45.5206338,-73.563906,St-Dominique / Ontario,45.5116011,-73.5663205,17,296.8235294,100,Montreal
2020,november,Métro Sherbrooke (de Rigaud / St-Denis),45.5179989,-73.5681841,Laval / Duluth,45.5192162,-73.5771802,17,289.9411765,94.11764706,Montreal
2020,november,de l'Hôtel-de-Ville / Sherbrooke,45.5145247,-73.5683557,Duluth / St-Laurent,45.5170456,-73.5792965,17,255.8823529,94.11764706,Montreal
2020,november,de la Commune / Place Jacques-Cartier,45.5076101,-73.551836,Léa-Roback / Sir-Georges-Etienne-Cartier,45.4716686,-73.5826439,17,1875.941176,52.94117647,Montreal
2020,november,de la Commune / St-Sulpice,45.5042425,-73.5534695,des Bassins / du Séminaire,45.4905646,-73.5603333,17,807.1176471,70.58823529,Montreal
2020,november,Roy / St-André,45.5215643,-73.5703674,Berri / Cherrier,45.5190884,-73.5695091,17,119.4117647,94.11764706,Montreal
2020,november,William / St-Henri,45.4989191,-73.5572541,Square Victoria (Viger / du Square-Victoria),45.50206,-73.56295,17,203.2941176,100,Montreal
2020,november,du Président-Kennedy / Jeanne-Mance,45.5082046,-73.5688144,Joseph-Manseau / René-Lévesque,45.4916865,-73.5767671,17,729.7058824,100,Montreal
2020,november,Métro Peel (de Maisonneuve / Stanley),45.50038,-73.57507,Métro Atwater (Atwater / Ste-Catherine),45.4894762,-73.5845657,17,686.7058824,94.11764706,Montreal
2020,november,Métro Vendôme (de Marlowe / de Maisonneuve),45.4739303,-73.6047345,Melville / de Maisonneuve,45.4818402,-73.595379,17,441.9411765,94.11764706,Montreal
2020,november,Métro Vendôme (de Marlowe / de Maisonneuve),45.4739303,-73.6047345,Benny / Sherbrooke,45.464877,-73.6265972,17,742.4705882,76.47058824,Montreal
2020,november,Duke / Brennan,45.4955814,-73.5537109,des Bassins / Richmond,45.4876991,-73.564893,17,1028.764706,76.47058824,Montreal
2020,november,Chomedey / de Maisonneuve,45.4918003,-73.5840064,Chomedey / de Maisonneuve,45.4918003,-73.5840064,17,1469.705882,88.23529412,Montreal
2020,november,Mackay / de Maisonneuve,45.4968299,-73.5791302,Drummond / de Maisonneuve,45.49947,-73.57591,17,154.7647059,94.11764706,Montreal
2020,november,Wolfe / René-Lévesque,45.5168175,-73.5541883,Wolfe / René-Lévesque,45.5168175,-73.5541883,17,1017.941176,94.11764706,Montreal
2020,november,St-Mathieu / Ste-Catherine,45.4936796,-73.5791463,St-Mathieu / Ste-Catherine,45.4936796,-73.5791463,17,692.7647059,94.11764706,Montreal
2020,november,Montcalm / de Maisonneuve,45.5191392,-73.5578656,Wolfe / René-Lévesque,45.5168175,-73.5541883,17,841.4705882,94.11764706,Montreal
2020,november,de Bordeaux / Sherbrooke,45.5299707,-73.563053,Bercy / Rachel,45.5384034,-73.561964,17,383.4705882,100,Montreal
2020,november,Marquette / Rachel,45.5298016,-73.5702896,Marquette / du Mont-Royal,45.53229,-73.57544,17,167.8823529,100,Montreal
2020,november,Calixa-Lavallée / Sherbrooke,45.52479,-73.56545,Calixa-Lavallée / Rachel,45.5277948,-73.5719392,17,221.4705882,100,Montreal
2020,november,Émile-Duployé / Sherbrooke,45.5272931,-73.5648072,Gauthier / Papineau,45.5296663,-73.5673365,17,217.6470588,64.70588235,Montreal
2020,november,des Érables / du Mont-Royal,45.5358535,-73.5720545,des Érables / Laurier,45.5384608,-73.5776791,17,218.0588235,100,Montreal
2020,november,Chabot / du Mont-Royal,45.5341851,-73.5735887,Cartier / Masson,45.5380207,-73.5835236,17,382.0588235,94.11764706,Montreal
2020,november,Marquette / du Mont-Royal,45.53229,-73.57544,Messier / du Mont-Royal,45.5371141,-73.5710031,17,308.2941176,94.11764706,Montreal
2020,november,de Brébeuf / du Mont-Royal,45.5294078,-73.5781538,Métro Mont-Royal (Rivard / du Mont-Royal),45.524673,-73.58255,17,351.7058824,100,Montreal
2020,november,Laurier / de Brébeuf,45.532514,-73.5848111,de Brébeuf / du Mont-Royal,45.5294078,-73.5781538,17,221.0588235,76.47058824,Montreal
2020,november,Boyer / du Mont-Royal,45.5274321,-73.5799167,Marquette / du Mont-Royal,45.53229,-73.57544,17,250.2941176,76.47058824,Montreal
2020,november,Boyer / du Mont-Royal,45.5274321,-73.5799167,Laurier / de Brébeuf,45.532514,-73.5848111,17,259.1764706,100,Montreal
2020,november,St-Hubert / Duluth,45.5224257,-73.5741842,Resther / du Mont-Royal,45.5256282,-73.5817748,17,247.2941176,100,Montreal
2020,november,Métro Mont-Royal (Rivard / du Mont-Royal),45.524673,-73.58255,des Érables / du Mont-Royal,45.5358535,-73.5720545,17,494.7647059,88.23529412,Montreal
2020,november,Pontiac / Gilford,45.5270093,-73.585766,Cartier / St-Joseph,45.5358282,-73.5786903,17,338.4117647,100,Montreal
2020,november,Métro Atwater (Atwater / Ste-Catherine),45.4894762,-73.5845657,Chomedey / de Maisonneuve,45.4918003,-73.5840064,17,1113,70.58823529,Montreal
2020,november,Métro Atwater (Atwater / Ste-Catherine),45.4894762,-73.5845657,Melville / de Maisonneuve,45.4818402,-73.595379,17,651,94.11764706,Montreal
2020,november,de Bordeaux / Masson,45.5389844,-73.5824454,Pontiac / Gilford,45.5270093,-73.585766,17,518.8823529,82.35294118,Montreal
2020,november,Milton / du Parc,45.5093614,-73.5738637,University / Milton,45.5065112,-73.5766692,17,196.2941176,100,Montreal
2020,november,Ste-Famille / des Pins,45.5128317,-73.5768878,St-Urbain / René-Lévesque,45.5078375,-73.5631362,17,306.8823529,100,Montreal
2020,november,Métro Sauvé (Berri / Sauvé),45.5506921,-73.6563671,Clark / Fleury,45.5476576,-73.6655617,17,419.7647059,100,Montreal
2020,november,Duluth / St-Laurent,45.5170456,-73.5792965,Square St-Louis (du Square St-Louis / Laval),45.5160908,-73.5701287,17,551.3529412,100,Montreal
2020,november,Square St-Louis (du Square St-Louis / Laval),45.5160908,-73.5701287,St-Dominique / Napoléon,45.5166644,-73.5772204,17,258.7647059,100,Montreal
2020,november,du Mont-Royal / Clark,45.51941,-73.58685,de Bullion / St-Joseph,45.5240365,-73.5901433,17,319.7058824,100,Montreal
2020,november,Waverly / St-Viateur,45.5238561,-73.6001265,Parc Jeanne-Mance (du Mont-Royal / du Parc),45.517,-73.589,17,709.7058824,70.58823529,Montreal
2020,november,St-Dominique / St-Zotique,45.5322646,-73.6110632,Chambord / Beaubien,45.5399322,-73.5993433,17,412.3529412,100,Montreal
2020,november,St-Dominique / St-Zotique,45.5322646,-73.6110632,Casgrain / Mozart,45.5347273,-73.6147928,17,154.7647059,100,Montreal
2020,november,Métro Jean-Talon (Berri / Jean-Talon),45.5390004,-73.614251,St-Gérard / Villeray,45.5426454,-73.6224445,17,289.8235294,94.11764706,Montreal
2020,november,de Hampton / de Monkland,45.4711793,-73.6270022,Métro Villa-Maria (de Monkland / Décarie),45.4789684,-73.6195993,17,489.5294118,88.23529412,Montreal
2020,november,Louis-Hébert / Beaubien,45.5481864,-73.5920101,Beaubien / 8e avenue,45.5534568,-73.587842,17,253.1764706,100,Montreal
2020,november,St-Dominique / Laurier,45.5236149,-73.5924574,Laurier / de Brébeuf,45.532514,-73.5848111,17,335.5294118,88.23529412,Montreal
2020,november,d'Orléans / Masson,45.557192,-73.569847,Métro Pie-IX (Pierre-de-Coubertin / Pie-IX),45.5542138,-73.5515597,17,497.1176471,88.23529412,Montreal
2020,november,1ère avenue / Masson,45.5451997,-73.5764507,10e avenue / Holt,45.5519116,-73.5792112,17,343.5294118,64.70588235,Montreal
2020,november,de Bordeaux / Gilford,45.5361101,-73.576287,Chabot / du Mont-Royal,45.5341851,-73.5735887,17,105.6470588,100,Montreal
2020,november,Métro Viau (Pierre-de-Coubertin / Viau),45.5617828,-73.5466111,Métro Viau (Pierre-de-Coubertin / Viau),45.5617828,-73.5466111,17,1289.647059,35.29411765,Montreal
2020,november,des Seigneurs / Notre-Dame,45.4877228,-73.5690826,Métro Georges-Vanier (St-Antoine / Canning),45.4891,-73.57656,17,232.8823529,88.23529412,Montreal
2020,november,Duvernay / Charlevoix,45.482098,-73.5748762,Duvernay / Charlevoix,45.482098,-73.5748762,17,1509.823529,94.11764706,Montreal
2020,november,Marché Atwater,45.4802082,-73.5775986,Ottawa / Peel,45.4939202,-73.5595018,17,853,64.70588235,Montreal
2020,november,Métro Crémazie (Crémazie / Lajeunesse),45.5464075,-73.6384284,Complexe sportif Claude-Robillard,45.553262,-73.638615,17,339.0588235,94.11764706,Montreal
2020,november,Métro Verdun (Willibrord / de Verdun),45.4594877,-73.5720921,Natatorium (LaSalle / Rolland),45.444547,-73.5750908,17,644.7058824,88.23529412,Montreal
2020,november,Parc Jean-Drapeau (Chemin Macdonald),45.5128006,-73.5311159,La Ronde,45.5215654,-73.5353324,17,900.7058824,41.17647059,Montreal
2020,november,Ontario / Viau,45.5594818,-73.535496,Marché Maisonneuve,45.5532188,-73.5397822,17,362.2352941,94.11764706,Montreal
2020,november,St-André / Ste-Catherine,45.5164265,-73.5581124,Atateken / du Square Amherst,45.5206338,-73.563906,17,258.5882353,100,Montreal
2020,november,St-André / Ste-Catherine,45.5164265,-73.5581124,St-André / Ontario,45.51889,-73.56353,17,191.2352941,100,Montreal
2020,november,St-Gérard / Villeray,45.5426454,-73.6224445,Métro Jean-Talon (Berri / Jean-Talon),45.5390004,-73.614251,17,269.1764706,94.11764706,Montreal
2020,november,Young / Wellington,45.4928253,-73.5579783,de la Commune / Place Jacques-Cartier,45.5076101,-73.551836,17,1117.117647,35.29411765,Montreal
2020,november,Montcalm / Ontario,45.521081,-73.5622752,Montcalm / Ontario,45.521081,-73.5622752,17,2181.529412,100,Montreal
2020,november,Métro Beaubien (de Chateaubriand / Beaubien),45.53536,-73.6036348,St-Dominique / St-Zotique,45.5322646,-73.6110632,17,247.3529412,100,Montreal
2020,november,Métro Beaubien (de Chateaubriand / Beaubien),45.53536,-73.6036348,Bélanger / St-Denis,45.53696,-73.61199,17,372.9411765,88.23529412,Montreal
2020,november,Métro Guy-Concordia (Guy / St-Catherine),45.4949815,-73.5777327,Métro Guy-Concordia (Guy / St-Catherine),45.4949815,-73.5777327,17,878.7058824,52.94117647,Montreal
2020,november,Kirkfield / de Chambois,45.5129332,-73.6338902,Kirkfield / de Chambois,45.5129332,-73.6338902,17,1408.470588,47.05882353,Montreal
2020,november,Berri / Rachel,45.5228777,-73.5774806,des Érables / Rachel,45.5335475,-73.5668671,17,446.2941176,94.11764706,Montreal
2020,november,de Maisonneuve / Mansfield (nord),45.5023861,-73.5733379,Square St-Louis (du Square St-Louis / Laval),45.5160908,-73.5701287,17,567.5294118,100,Montreal
2020,november,Jogues / Allard,45.4500203,-73.6003062,Jogues / Allard,45.4500203,-73.6003062,17,956.2941176,100,Montreal
2020,november,de la Côte St-Paul / St-Ambroise,45.4676657,-73.5939178,de la Côte St-Paul / St-Ambroise,45.4676657,-73.5939178,17,1056.117647,70.58823529,Montreal
2020,november,de la Côte St-Paul / St-Ambroise,45.4676657,-73.5939178,St-Joseph / 8e avenue Lachine,45.4314714,-73.671205,17,2005.705882,70.58823529,Montreal
2020,november,Bibliothèque de Verdun (Brown / Bannantyne),45.448262,-73.5778561,Métro Verdun (Willibrord / de Verdun),45.4594877,-73.5720921,17,397.8823529,88.23529412,Montreal
2020,november,des Bassins / Richmond,45.4876991,-73.564893,de la Commune / St-Sulpice,45.5042425,-73.5534695,17,1097.823529,76.47058824,Montreal
2020,november,Tupper / du Fort,45.4912296,-73.5807824,Métro Georges-Vanier (St-Antoine / Canning),45.4891,-73.57656,17,204.5882353,100,Montreal
2020,november,St-Joseph / 8e avenue Lachine,45.4314714,-73.671205,LaSalle / 90e avenue,45.4171507,-73.6442435,17,1290.705882,64.70588235,Montreal
2020,november,Métro Charlevoix (Centre / Charlevoix),45.4782279,-73.5696512,Ryde / Charlevoix,45.4757434,-73.5646007,17,136.1176471,82.35294118,Montreal
2020,november,de l'Hôtel-de-Ville / Sherbrooke,45.5145247,-73.5683557,de l'Hôtel-de-Ville / Sherbrooke,45.5145247,-73.5683557,16,1365,56.25,Montreal
2020,november,des Récollets / McGill,45.5008765,-73.5590056,des Bassins / du Séminaire,45.4905646,-73.5603333,16,472.375,87.5,Montreal
2020,november,Métro Bonaventure (de la Gauchetière / de la Cathédrale),45.4983122,-73.567256,Young / Wellington,45.4928253,-73.5579783,16,297.0625,100,Montreal
2020,november,Drummond / Ste-Catherine,45.4986393,-73.5742271,des Bassins / du Séminaire,45.4905646,-73.5603333,16,483.5625,87.5,Montreal
2020,november,Métro Vendôme (de Marlowe / de Maisonneuve),45.4739303,-73.6047345,Métro Vendôme (de Marlowe / de Maisonneuve),45.4739303,-73.6047345,16,1155.5,93.75,Montreal
2020,november,Métro Vendôme (de Marlowe / de Maisonneuve),45.4739303,-73.6047345,Park Row O / Sherbrooke,45.4607294,-73.6340725,16,747.375,68.75,Montreal
2020,november,Joseph-Manseau / René-Lévesque,45.4916865,-73.5767671,St-Mathieu / Ste-Catherine,45.4936796,-73.5791463,16,164.3125,87.5,Montreal
2020,november,Chomedey / de Maisonneuve,45.4918003,-73.5840064,de Maisonneuve / Greene,45.4869706,-73.5892931,16,414.5,100,Montreal
2020,november,Mackay / de Maisonneuve,45.4968299,-73.5791302,Metcalfe / St-Catherine,45.5008323,-73.5724595,16,484.8125,100,Montreal
2020,november,Papineau / René-Lévesque,45.52114,-73.54926,Papineau / René-Lévesque,45.52114,-73.54926,16,138.9375,68.75,Montreal
2020,november,Dorion / Ontario,45.5269913,-73.5582116,Stanley / Sherbrooke,45.5010411,-73.5771775,16,842.5,100,Montreal
2020,november,Ellendale / de la Côte-des-Neiges,45.499757,-73.629298,de Kent / de la Côte-des-Neiges,45.5014493,-73.6330506,16,155.125,100,Montreal
2020,november,Larivière / de Lorimier,45.5291345,-73.5592335,Atateken / du Square Amherst,45.5206338,-73.563906,16,332.5,100,Montreal
2020,november,Gauthier / Papineau,45.5296663,-73.5673365,Messier / du Mont-Royal,45.5371141,-73.5710031,16,361.0625,100,Montreal
2020,november,Marquette / Rachel,45.5298016,-73.5702896,Métro Mont-Royal (Rivard / du Mont-Royal),45.524673,-73.58255,16,410.4375,93.75,Montreal
2020,november,Marquette / du Mont-Royal,45.53229,-73.57544,de Brébeuf / du Mont-Royal,45.5294078,-73.5781538,16,162.1875,93.75,Montreal
2020,november,Marie-Anne / de la Roche,45.5277581,-73.5761851,Marie-Anne / St-Hubert,45.524683,-73.5788968,16,134.4375,100,Montreal
2020,november,Marquette / Laurier,45.53543,-73.5822,Marquette / Laurier,45.53543,-73.5822,16,492.0625,87.5,Montreal
2020,november,Laurier / de Brébeuf,45.532514,-73.5848111,St-Dominique / Laurier,45.5236149,-73.5924574,16,454.25,93.75,Montreal
2020,november,Wolfe / Robin,45.5195808,-73.560116,Plessis / Ontario,45.5234921,-73.5607302,16,185.125,100,Montreal
2020,november,Rivard / Rachel,45.5222776,-73.5775906,Boyer / du Mont-Royal,45.5274321,-73.5799167,16,320.8125,81.25,Montreal
2020,november,Clark / Rachel,45.5173538,-73.5821289,Hutchison / Sherbrooke,45.5078435,-73.5720961,16,475.4375,81.25,Montreal
2020,november,Métro Mont-Royal (Rivard / du Mont-Royal),45.524673,-73.58255,Messier / du Mont-Royal,45.5371141,-73.5710031,16,629.6875,93.75,Montreal
2020,november,Pontiac / Gilford,45.5270093,-73.585766,Garnier / St-Grégoire,45.5357948,-73.5870829,16,396.75,87.5,Montreal
2020,november,Pontiac / Gilford,45.5270093,-73.585766,de Mentana / Gilford,45.5287236,-73.5838589,16,104.3125,93.75,Montreal
2020,november,Ste-Famille / Sherbrooke,45.5100715,-73.5707523,University / Milton,45.5065112,-73.5766692,16,540,81.25,Montreal
2020,november,Milton / Durocher,45.508141,-73.5749298,Prince-Arthur / du Parc,45.51059,-73.57547,16,303,100,Montreal
2020,november,Roy / St-Laurent,45.5156162,-73.5758083,Roy / St-André,45.5215643,-73.5703674,16,271.375,100,Montreal
2020,november,de l'Esplanade / du Mont-Royal,45.5182529,-73.5883382,de l'Esplanade / Fairmount,45.5214957,-73.5968267,16,304.5,87.5,Montreal
2020,november,Parc Jeanne-Mance (du Mont-Royal / du Parc),45.517,-73.589,Duluth / St-Laurent,45.5170456,-73.5792965,16,315.625,100,Montreal
2020,november,Parc Jeanne-Mance (du Mont-Royal / du Parc),45.517,-73.589,Parc Jeanne-Mance (du Mont-Royal / du Parc),45.517,-73.589,16,2303,75,Montreal
2020,november,St-Dominique / du Mont-Royal,45.5205595,-73.5858203,Métro Mont-Royal (Rivard / du Mont-Royal),45.524673,-73.58255,16,334.5625,87.5,Montreal
2020,november,Waverly / St-Viateur,45.5238561,-73.6001265,Waverly / St-Viateur,45.5238561,-73.6001265,16,2316.0625,81.25,Montreal
2020,november,Bloomfield / Bernard,45.5204578,-73.6082724,Villeneuve / St-Laurent,45.5213417,-73.5894191,16,512.1875,93.75,Montreal
2020,november,de Hampton / de Monkland,45.4711793,-73.6270022,Benny / Sherbrooke,45.464877,-73.6265972,16,465.5625,93.75,Montreal
2020,november,des Érables / Laurier,45.5384608,-73.5776791,des Érables / Laurier,45.5384608,-73.5776791,16,994.5625,87.5,Montreal
2020,november,St-Dominique / Laurier,45.5236149,-73.5924574,Marquette / Laurier,45.53543,-73.5822,16,389.4375,81.25,Montreal
2020,november,St-Dominique / Laurier,45.5236149,-73.5924574,de Lanaudière / Laurier,45.5333136,-73.5837369,16,363.25,100,Montreal
2020,november,Beaubien / 8e avenue,45.5534568,-73.587842,Boyer / Beaubien,45.537041,-73.602026,16,730.75,87.5,Montreal
2020,november,4e avenue / Masson,45.5469264,-73.5754113,15e avenue / Masson,45.553898,-73.5713866,16,368.5625,100,Montreal
2020,november,1ère avenue / Masson,45.5451997,-73.5764507,d'Orléans / Masson,45.557192,-73.569847,16,539.75,93.75,Montreal
2020,november,Omer-Lavallée / du Midway,45.545776,-73.5621746,Omer-Lavallée / du Midway,45.545776,-73.5621746,16,1315.3125,87.5,Montreal
2020,november,Rivier / Davidson,45.5461147,-73.5570931,Métro Joliette  (Joliette / Hochelaga),45.5469072,-73.5515571,16,203.375,43.75,Montreal
2020,november,Métro Préfontaine (Moreau / Hochelaga),45.5412155,-73.5537136,Métro Préfontaine (Moreau / Hochelaga),45.5412155,-73.5537136,16,958.5625,81.25,Montreal
2020,november,Métro Préfontaine (Moreau / Hochelaga),45.5412155,-73.5537136,Valois / Ontario,45.5470481,-73.5434461,16,390.1875,93.75,Montreal
2020,november,Marché Maisonneuve,45.5532188,-73.5397822,Métro Joliette  (Joliette / Hochelaga),45.5469072,-73.5515571,16,471,93.75,Montreal
2020,november,Marché Maisonneuve,45.5532188,-73.5397822,Valois / Ontario,45.5470481,-73.5434461,16,652.25,87.5,Montreal
2020,november,Desjardins / Ontario,45.5511919,-73.5408725,Ontario / Viau,45.5594818,-73.535496,16,337.625,93.75,Montreal
2020,november,Marché Atwater,45.4802082,-73.5775986,Ste-Émilie / Sir-Georges-Etienne-Cartier,45.472668,-73.5853898,16,494.1875,75,Montreal
2020,november,Complexe sportif Claude-Robillard,45.553262,-73.638615,Métro Crémazie (Crémazie / Lajeunesse),45.5464075,-73.6384284,16,330.375,87.5,Montreal
2020,november,Berlioz / de l'Île des Soeurs,45.4599858,-73.5439557,Place du Commerce,45.46714,-73.54259,16,403.75,87.5,Montreal
2020,november,Place du Commerce,45.46714,-73.54259,Jacques-Le Ber / de la Pointe Nord,45.4726867,-73.5397124,16,1334.9375,50,Montreal
2020,november,Place du Commerce,45.46714,-73.54259,Métro Lasalle (de Rushbrooke / Caisse),45.4706964,-73.5654224,16,703.4375,93.75,Montreal
2020,november,de Maisonneuve / Greene,45.4869706,-73.5892931,Guy / Notre-Dame,45.4900422,-73.5671112,16,603,100,Montreal
2020,november,Place Jean-Paul Riopelle (Viger / de Bleury),45.50372674,-73.56170386,St-André / Ontario,45.51889,-73.56353,16,371.3125,100,Montreal
2020,november,Natatorium (LaSalle / Rolland),45.444547,-73.5750908,Natatorium (LaSalle / Rolland),45.444547,-73.5750908,16,1790.4375,62.5,Montreal
2020,november,St-Dominique / Napoléon,45.5166644,-73.5772204,Métro St-Laurent (de Maisonneuve / St-Laurent),45.5111177,-73.564788,16,304.875,100,Montreal
2020,november,de Bordeaux / Jean-Talon,45.5497548,-73.605566,Fullum / Holt,45.5439195,-73.5842489,16,619.3125,100,Montreal
2020,november,Parc des Rapides (LaSalle / 6e avenue),45.4294714,-73.5930992,LaSalle / Godin,45.4469345,-73.5721993,16,1204.4375,37.5,Montreal
2020,november,Hutchison / Sherbrooke,45.5078435,-73.5720961,Clark / Rachel,45.5173538,-73.5821289,16,699.4375,62.5,Montreal
2020,november,Guilbault / Clark,45.5141079,-73.5752302,Métro St-Laurent (de Maisonneuve / St-Laurent),45.5111177,-73.564788,16,441.6875,87.5,Montreal
2020,november,de la Côte St-Paul / St-Ambroise,45.4676657,-73.5939178,de la Commune / St-Sulpice,45.5042425,-73.5534695,16,1699.6875,37.5,Montreal
